,City,Country,Date,Lat,Lng,Max Temp,Humidity,Cloudiness,Wind Speed,Current Description,Rain inches (last 3 hrs),Snow inches (last 3 hrs)
0,Pleasanton,US,2020-02-20 04:22:04,37.66,-121.87,55.4,53,90,6.93,overcast clouds,0,0
1,New Norfolk,AU,2020-02-20 04:25:10,-42.78,147.06,68.0,42,75,18.34,broken clouds,0,0
2,Castro,BR,2020-02-20 04:25:10,-24.79,-50.01,66.65,97,94,2.51,light rain,0.94,0
3,Hilo,US,2020-02-20 04:25:10,19.73,-155.09,73.4,73,75,8.05,broken clouds,0,0
4,Cape Town,ZA,2020-02-20 04:20:21,-33.93,18.42,69.01,100,75,17.22,broken clouds,0,0
5,Mar Del Plata,AR,2020-02-20 04:25:11,-38.0,-57.56,61.0,76,67,4.7,moderate rain,0,0
6,Mahibadhoo,MV,2020-02-20 04:25:11,3.78,72.97,81.66,74,0,17.83,clear sky,0,0
7,Barrow,US,2020-02-20 04:25:11,71.29,-156.79,-2.2,77,90,6.93,light snow,0,0
8,Carballo,ES,2020-02-20 04:25:12,43.21,-8.69,46.0,100,20,6.93,few clouds,0,0
9,Bethel,US,2020-02-20 04:25:12,41.37,-73.41,34.0,50,1,6.93,clear sky,0,0
10,Kodiak,US,2020-02-20 04:25:12,57.79,-152.41,33.8,86,90,20.8,light rain,0,0
11,Rikitea,PF,2020-02-20 04:25:12,-23.12,-134.97,78.62,79,21,13.11,few clouds,0,0
12,Mataura,NZ,2020-02-20 04:25:12,-46.19,168.86,73.15,58,91,7.96,overcast clouds,0,0
13,Vagay,RU,2020-02-20 04:21:06,57.94,69.02,32.2,98,100,6.17,light snow,0,1.19
14,Te Anau,NZ,2020-02-20 04:25:13,-45.42,167.72,61.57,71,92,1.21,overcast clouds,0,0
15,Buckeye,US,2020-02-20 04:25:13,33.37,-112.58,66.2,47,1,6.93,clear sky,0,0
16,Busselton,AU,2020-02-20 04:25:13,-33.65,115.33,91.99,17,0,12.97,clear sky,0,0
17,Matagami,CA,2020-02-20 04:25:14,49.75,-77.63,-14.8,83,1,5.82,clear sky,0,0
18,Atuona,PF,2020-02-20 04:25:14,-9.8,-139.03,81.99,79,27,17.56,light rain,0.13,0
19,Padang,ID,2020-02-20 04:25:14,-0.95,100.35,79.05,61,43,7.72,scattered clouds,0,0
20,Butaritari,KI,2020-02-20 04:25:15,3.07,172.79,82.9,81,100,14.63,light rain,1.38,0
21,Monte Escobedo,MX,2020-02-20 04:25:15,22.3,-103.58,62.91,45,0,4.99,clear sky,0,0
22,Nikolskoye,RU,2020-02-20 04:25:15,59.7,30.79,36.0,93,90,4.47,overcast clouds,0,0
23,Hithadhoo,MV,2020-02-20 04:25:15,-0.6,73.08,83.34,78,55,16.64,light rain,0.75,0
24,Chicama,PE,2020-02-20 04:25:16,-7.84,-79.15,71.6,88,75,9.17,mist,0,0
25,Amherst,US,2020-02-20 04:25:16,41.4,-82.22,28.99,68,1,4.7,clear sky,0,0
26,Kayes,ML,2020-02-20 04:25:16,14.0,-11.0,75.2,33,0,2.24,clear sky,0,0
27,Coahuayana,MX,2020-02-20 04:25:16,18.73,-103.68,71.73,69,0,4.07,clear sky,0,0
28,Gombong,ID,2020-02-20 04:23:17,-7.61,109.51,85.05,67,95,6.33,overcast clouds,0,0
29,Waingapu,ID,2020-02-20 04:25:17,-9.66,120.26,83.3,77,100,14.88,overcast clouds,0,0
30,Fortuna,US,2020-02-20 04:25:17,40.6,-124.16,45.0,93,1,0.89,clear sky,0,0
31,Port Alfred,ZA,2020-02-20 04:25:17,-33.59,26.89,71.01,93,35,6.78,light rain,0.13,0
32,Sao Filipe,CV,2020-02-20 04:25:18,14.9,-24.5,72.28,61,56,21.0,broken clouds,0,0
33,Agadez,NE,2020-02-20 04:25:18,19.75,10.25,56.95,27,0,9.48,clear sky,0,0
34,Georgetown,MY,2020-02-20 04:25:18,5.41,100.34,89.6,52,20,8.05,few clouds,0,0
35,Sobolevo,RU,2020-02-20 04:25:18,54.43,31.9,34.81,89,100,7.78,overcast clouds,0,0
36,Cidreira,BR,2020-02-20 04:25:18,-30.18,-50.21,75.31,78,0,13.18,clear sky,0,0
37,Yumen,CN,2020-02-20 04:25:19,40.28,97.2,25.52,44,100,22.06,overcast clouds,0,0
38,Ushuaia,AR,2020-02-20 04:22:44,-54.8,-68.3,46.4,93,90,24.16,drizzle,0,0
39,Faanui,PF,2020-02-20 04:25:19,-16.48,-151.75,82.81,76,100,18.1,moderate rain,3.06,0
40,Liverpool,GB,2020-02-20 04:25:20,53.41,-2.98,50.0,93,75,12.75,broken clouds,0,0
41,San Carlos De Bariloche,AR,2020-02-20 04:24:24,-41.15,-71.31,44.6,48,0,5.82,clear sky,0,0
42,Bredasdorp,ZA,2020-02-20 04:25:20,-34.53,20.04,69.8,94,58,8.05,broken clouds,0,0
43,Iqaluit,CA,2020-02-20 04:25:21,63.75,-68.51,-31.0,59,40,2.24,scattered clouds,0,0
44,Kapaa,US,2020-02-20 04:25:21,22.08,-159.32,78.8,73,75,23.04,broken clouds,0,0
45,Auki,SB,2020-02-20 04:25:21,-8.77,160.7,84.24,78,100,20.58,light rain,1.13,0
46,Camocim,BR,2020-02-20 04:25:21,-2.9,-40.84,73.99,96,100,3.33,moderate rain,3.06,0
47,Norman Wells,CA,2020-02-20 04:25:21,65.28,-126.83,10.4,72,75,4.7,broken clouds,0,0
48,Torbay,CA,2020-02-20 04:25:22,47.67,-52.73,30.99,79,40,32.21,scattered clouds,0,0
49,Pangnirtung,CA,2020-02-20 04:25:22,66.15,-65.71,-32.1,87,3,1.01,clear sky,0,0
50,Marsaxlokk,MT,2020-02-20 04:25:22,35.84,14.54,55.0,81,75,14.99,broken clouds,0,0
51,Sibolga,ID,2020-02-20 04:25:22,1.74,98.78,84.22,59,11,3.6,few clouds,0,0
52,Hermanus,ZA,2020-02-20 04:25:22,-34.42,19.23,66.0,93,71,7.0,light rain,0.25,0
53,Mayskiy,RU,2020-02-20 04:25:23,47.69,40.1,35.6,93,75,8.95,mist,0,0
54,Punta Arenas,CL,2020-02-20 04:24:26,-53.15,-70.92,46.4,68,75,14.99,broken clouds,0,0
55,Sao Sebastiao,BR,2020-02-20 04:25:23,-23.76,-45.41,80.85,81,63,3.18,broken clouds,0,0
56,Katsuura,JP,2020-02-20 04:25:23,35.13,140.3,55.99,57,75,3.36,broken clouds,0,0
57,Kruisfontein,ZA,2020-02-20 04:25:23,-34.0,24.73,74.61,47,33,5.93,scattered clouds,0,0
58,Mahebourg,MU,2020-02-20 04:25:24,-20.41,57.7,80.6,69,40,8.05,scattered clouds,0,0
59,Hambantota,LK,2020-02-20 04:25:24,6.12,81.12,84.2,74,20,13.87,few clouds,0,0
60,Durban,ZA,2020-02-20 04:25:24,-29.86,31.03,71.6,94,97,1.12,light rain,0.13,0
61,Aleppo,SY,2020-02-20 04:25:25,36.25,37.5,47.23,87,0,15.37,clear sky,0,0
62,Naryan-Mar,RU,2020-02-20 04:25:25,67.67,53.09,15.75,90,95,4.7,overcast clouds,0,0
63,Shingu,JP,2020-02-20 04:25:25,33.73,135.98,53.6,50,75,4.7,broken clouds,0,0
64,Salalah,OM,2020-02-20 04:25:25,17.02,54.09,73.4,69,75,4.7,broken clouds,0,0
65,Hobart,AU,2020-02-20 04:25:25,-42.88,147.33,68.0,42,75,18.34,broken clouds,0,0
66,Half Moon Bay,US,2020-02-20 04:25:26,37.46,-122.43,55.4,66,20,10.29,few clouds,0,0
67,Kalaleh,IR,2020-02-20 04:25:26,37.38,55.49,42.8,93,90,2.19,mist,0,0
68,Albany,US,2020-02-20 04:25:26,42.6,-73.97,25.0,49,40,6.93,scattered clouds,0,0
69,Inhambane,MZ,2020-02-20 04:25:26,-23.86,35.38,75.2,94,20,9.66,few clouds,0,0
70,Foz Do Iguacu,BR,2020-02-20 04:25:27,-25.55,-54.59,82.4,94,92,2.24,overcast clouds,0,0
71,Sechura,PE,2020-02-20 04:25:27,-5.56,-80.82,74.64,84,59,6.22,broken clouds,0,0
72,Saint-Joseph,RE,2020-02-20 04:25:27,-21.37,55.62,81.0,65,0,10.29,clear sky,0,0
73,North Bend,US,2020-02-20 04:25:27,43.41,-124.22,48.99,87,1,4.7,clear sky,0,0
74,Zhezkazgan,KZ,2020-02-20 04:25:28,47.8,67.71,6.8,92,20,4.47,few clouds,0,0
75,Lypnyazhka,UA,2020-02-20 04:25:28,48.45,31.08,34.84,79,1,3.6,clear sky,0,0
76,Acapulco,MX,2020-02-20 04:25:05,16.86,-99.89,80.6,74,5,6.93,clear sky,0,0
77,Bluff,NZ,2020-02-20 04:25:29,-46.6,168.33,71.33,51,100,7.43,overcast clouds,0,0
78,Bjornevatn,NO,2020-02-20 04:25:29,69.67,29.98,17.6,72,0,23.04,clear sky,0,0
79,Wewak,PG,2020-02-20 04:25:29,-3.55,143.63,85.01,60,88,12.26,overcast clouds,0,0
80,Jamestown,US,2020-02-20 04:25:04,42.1,-79.24,26.6,73,90,8.05,overcast clouds,0,0
81,Gloucester,GB,2020-02-20 04:25:30,51.87,-2.24,48.99,87,90,16.11,overcast clouds,0,0
82,Yambio,SS,2020-02-20 04:25:30,4.57,28.4,72.52,47,89,3.42,overcast clouds,0,0
83,Boguchany,RU,2020-02-20 04:25:30,58.38,97.45,19.11,90,100,10.11,light snow,0,0.25
84,Brigantine,US,2020-02-20 04:25:30,39.41,-74.36,37.99,50,1,3.22,clear sky,0,0
85,Puerto Madero,MX,2020-02-20 04:25:30,14.72,-92.42,78.8,94,75,4.7,broken clouds,0,0
86,Xai-Xai,MZ,2020-02-20 04:25:31,-25.05,33.64,74.03,93,23,3.09,light rain,0.5,0
87,Tiksi,RU,2020-02-20 04:25:31,71.69,128.87,-3.59,84,100,10.49,overcast clouds,0,0
88,Hasaki,JP,2020-02-20 04:25:31,35.73,140.83,57.0,47,75,4.7,broken clouds,0,0
89,Alma,CA,2020-02-20 04:25:09,48.55,-71.65,-5.01,63,20,4.7,few clouds,0,0
90,Gawler,AU,2020-02-20 04:25:32,-34.6,138.73,72.0,40,75,11.41,broken clouds,0,0
91,Avera,US,2020-02-20 04:25:32,33.19,-82.53,51.8,88,90,12.75,haze,0,0
92,Doha,QA,2020-02-20 04:21:02,25.29,51.53,73.0,68,97,5.82,overcast clouds,0,0
93,Taoudenni,ML,2020-02-20 04:25:32,22.68,-3.98,66.36,13,80,5.73,broken clouds,0,0
94,Ribeira Grande,PT,2020-02-20 04:25:33,38.52,-28.7,51.8,62,40,3.36,scattered clouds,0,0
95,Aklavik,CA,2020-02-20 04:25:33,68.22,-135.01,14.0,92,90,6.93,light snow,0,0
96,Rawah,IQ,2020-02-20 04:25:33,34.48,41.91,53.11,93,37,10.92,scattered clouds,0,0
97,Puerto Ayora,EC,2020-02-20 04:25:33,-0.74,-90.35,78.15,87,27,7.54,scattered clouds,0,0
98,Kuala Selangor,MY,2020-02-20 04:25:33,3.35,101.25,89.6,52,20,6.93,few clouds,0,0
99,Jalu,LY,2020-02-20 04:25:34,29.03,21.55,52.18,73,0,6.22,clear sky,0,0
100,Komsomolskiy,UZ,2020-02-20 04:25:34,40.43,71.72,32.0,61,0,1.48,clear sky,0,0
101,Bambous Virieux,MU,2020-02-20 04:25:34,-20.34,57.76,80.6,69,40,8.05,scattered clouds,0,0
102,Vardo,NO,2020-02-20 04:25:34,70.37,31.11,19.4,78,31,14.99,scattered clouds,0,0
103,Nanortalik,GL,2020-02-20 04:25:35,60.14,-45.24,16.95,67,100,6.38,overcast clouds,0,0
104,Upernavik,GL,2020-02-20 04:25:35,72.79,-56.15,0.81,95,100,7.09,light snow,0,0.19
105,Victoria,HK,2020-02-20 04:23:06,22.29,114.16,73.0,42,20,10.29,few clouds,0,0
106,Avarua,CK,2020-02-20 04:25:35,-21.21,-159.78,78.8,94,100,8.05,light rain,1.44,0
107,Bara,NG,2020-02-20 04:25:36,10.37,10.73,64.44,28,15,6.91,few clouds,0,0
108,Yen Bai,VN,2020-02-20 04:25:36,21.7,104.87,63.66,81,100,2.08,overcast clouds,0,0
109,Nyurba,RU,2020-02-20 04:25:36,63.28,118.33,6.75,91,100,7.65,overcast clouds,0,0
110,Gallup,US,2020-02-20 04:25:36,35.53,-108.74,33.8,40,1,8.14,clear sky,0,0
111,Ancud,CL,2020-02-20 04:25:36,-41.87,-73.82,48.2,76,0,12.75,clear sky,0,0
112,Luderitz,NA,2020-02-20 04:25:37,-26.65,15.16,63.95,96,64,15.35,broken clouds,0,0
113,Pastos Bons,BR,2020-02-20 04:25:37,-6.6,-44.08,72.73,94,100,1.39,moderate rain,5.63,0
114,Airai,TL,2020-02-20 04:25:37,-8.93,125.41,79.9,69,43,3.06,light rain,2.56,0
115,Poya,NC,2020-02-20 04:25:37,-21.35,165.15,80.33,72,0,10.92,clear sky,0,0
116,Nambucca Heads,AU,2020-02-20 04:25:37,-30.65,153.0,82.0,54,0,11.41,clear sky,0,0
117,Esperance,AU,2020-02-20 04:25:38,-33.87,121.9,75.2,41,75,12.75,broken clouds,0,0
118,Tursunzoda,TJ,2020-02-20 04:25:38,38.51,68.23,35.6,69,0,4.47,mist,0,0
119,Port Hawkesbury,CA,2020-02-20 04:25:38,45.62,-61.35,24.01,73,40,25.28,light snow,0,0
120,Mlawa,PL,2020-02-20 04:25:38,53.11,20.38,35.6,100,75,6.93,broken clouds,0,0
121,Ukiah,US,2020-02-20 04:22:17,39.15,-123.21,52.0,57,1,3.36,clear sky,0,0
122,Port Hedland,AU,2020-02-20 04:25:39,-20.32,118.57,96.8,47,0,12.75,clear sky,0,0
123,Nyahururu,KE,2020-02-20 04:25:39,0.04,36.37,53.49,85,86,5.91,overcast clouds,0,0
124,Vaini,TO,2020-02-20 04:25:40,-21.2,-175.2,82.4,65,40,6.93,scattered clouds,0,0
125,Griffith,US,2020-02-20 04:24:51,41.53,-87.42,23.0,49,40,5.01,scattered clouds,0,0
126,Deming,US,2020-02-20 04:25:40,32.27,-107.76,48.2,61,1,6.93,clear sky,0,0
127,Beloha,MG,2020-02-20 04:25:40,-25.17,45.05,71.49,91,0,7.02,clear sky,0,0
128,Abu Zabad,SD,2020-02-20 04:25:40,12.35,29.25,65.82,25,0,16.04,clear sky,0,0
129,Lebu,CL,2020-02-20 04:25:41,-37.62,-73.65,55.83,64,0,8.79,clear sky,0,0
130,Qaanaaq,GL,2020-02-20 04:25:41,77.48,-69.36,-12.44,52,0,3.96,clear sky,0,0
131,Bundaberg,AU,2020-02-20 04:21:34,-24.85,152.35,93.2,52,40,3.36,scattered clouds,0,0
132,Apatou,GF,2020-02-20 04:25:41,5.16,-54.35,72.88,84,100,2.73,light rain,0.13,0
133,Marsh Harbour,BS,2020-02-20 04:25:41,26.54,-77.06,75.27,84,4,8.05,light rain,0.13,0
134,Haines Junction,CA,2020-02-20 04:25:42,60.75,-137.51,20.41,94,98,13.76,light snow,0,0.5
135,Mujiayingzi,CN,2020-02-20 04:25:42,42.12,118.78,30.2,61,100,5.7,overcast clouds,0,0
136,Casper,US,2020-02-20 04:24:29,42.87,-106.31,8.6,78,1,3.36,clear sky,0,0
137,Tacuarembo,UY,2020-02-20 04:25:42,-31.73,-55.98,65.41,66,0,2.73,clear sky,0,0
138,Soresina,IT,2020-02-20 04:25:43,45.29,9.86,44.01,51,0,6.93,clear sky,0,0
139,Atlantic City,US,2020-02-20 04:25:43,39.36,-74.42,37.99,50,1,3.22,clear sky,0,0
140,Yerbogachen,RU,2020-02-20 04:25:43,61.28,108.01,9.59,94,100,6.6,overcast clouds,0,0
141,Sakaiminato,JP,2020-02-20 04:25:43,35.55,133.23,55.4,47,40,3.36,scattered clouds,0,0
142,Kavieng,PG,2020-02-20 04:25:44,-2.57,150.8,83.61,73,0,12.08,light rain,1.81,0
143,Yellowknife,CA,2020-02-20 04:25:19,62.46,-114.35,8.6,84,40,10.29,scattered clouds,0,0
144,Thompson,CA,2020-02-20 04:25:44,55.74,-97.86,5.0,60,90,13.87,light snow,0,0
145,Kirakira,SB,2020-02-20 04:25:44,-10.45,161.92,83.05,77,21,2.06,light rain,1.94,0
146,Adrar,MR,2020-02-20 04:25:44,20.5,-10.07,67.6,15,0,11.5,clear sky,0,0
147,Geraldton,AU,2020-02-20 04:25:45,-28.77,114.6,80.6,61,90,11.41,overcast clouds,0,0
148,Portland,US,2020-02-20 04:21:44,45.52,-122.68,48.2,36,1,17.22,clear sky,0,0
149,Okhotsk,RU,2020-02-20 04:25:45,59.38,143.3,-1.44,72,0,7.78,clear sky,0,0
150,Fort Nelson,CA,2020-02-20 04:25:45,58.81,-122.7,8.6,92,20,1.14,few clouds,0,0
151,Arraial Do Cabo,BR,2020-02-20 04:25:45,-22.97,-42.03,77.95,85,100,27.0,overcast clouds,0,0
152,Richards Bay,ZA,2020-02-20 04:25:46,-28.78,32.04,75.42,87,0,4.94,clear sky,0,0
153,Baruun-Urt,MN,2020-02-20 04:25:46,46.68,113.28,19.04,88,100,10.2,light snow,0,0.25
154,Kendari,ID,2020-02-20 04:25:46,-3.94,122.5,83.55,75,100,6.46,light rain,1.06,0
155,Mehamn,NO,2020-02-20 04:25:46,71.04,27.85,26.6,79,40,12.75,scattered clouds,0,0
156,Huitziltepec,MX,2020-02-20 04:25:46,17.82,-99.47,73.0,42,0,5.06,clear sky,0,0
157,Kislovodsk,RU,2020-02-20 04:25:47,43.91,42.72,26.6,86,9,6.71,clear sky,0,0
158,Celestun,MX,2020-02-20 04:25:47,20.87,-90.4,77.97,86,0,22.95,clear sky,0,0
159,Bereda,ES,2020-02-20 04:25:47,43.27,-7.54,45.0,100,20,6.93,few clouds,0,0
160,San Jose,US,2020-02-20 04:21:52,37.34,-121.89,55.4,71,20,5.82,few clouds,0,0
161,Oranjemund,NA,2020-02-20 04:25:47,-28.55,16.43,66.6,89,98,6.73,overcast clouds,0,0
162,Lang Son,VN,2020-02-20 04:25:48,21.83,106.73,62.82,85,100,1.01,overcast clouds,0,0
163,Santa Cruz De La Palma,ES,2020-02-20 04:25:48,28.68,-17.76,64.4,59,90,13.87,overcast clouds,0,0
164,Dumas,US,2020-02-20 04:25:48,35.87,-101.97,39.99,55,90,14.99,overcast clouds,0,0
165,Guerrero Negro,MX,2020-02-20 04:25:49,27.98,-114.06,60.53,80,0,11.56,clear sky,0,0
166,Sambava,MG,2020-02-20 04:25:49,-14.27,50.17,71.92,97,42,2.01,scattered clouds,0,0
167,Hay River,CA,2020-02-20 04:25:49,60.82,-115.8,28.4,63,40,10.29,scattered clouds,0,0
168,Grindavik,IS,2020-02-20 04:25:50,63.84,-22.43,35.6,75,90,23.04,overcast clouds,0,0
169,Cabo San Lucas,MX,2020-02-20 04:25:06,22.89,-109.91,71.6,63,5,3.36,clear sky,0,0
170,Chuy,UY,2020-02-20 04:25:50,-33.7,-53.46,67.8,88,0,4.56,clear sky,0,0
171,Narsaq,GL,2020-02-20 04:25:50,60.92,-46.05,6.8,46,86,6.93,overcast clouds,0,0
172,Walvis Bay,NA,2020-02-20 04:25:50,-22.96,14.51,64.0,94,100,7.34,overcast clouds,0,0
173,Mount Gambier,AU,2020-02-20 04:25:51,-37.83,140.77,64.4,55,90,11.41,overcast clouds,0,0
174,Zurrieq,MT,2020-02-20 04:25:51,35.83,14.47,55.0,81,75,14.99,broken clouds,0,0
175,Cherskiy,RU,2020-02-20 04:25:51,68.75,161.3,-19.08,95,98,4.68,overcast clouds,0,0
176,Tuktoyaktuk,CA,2020-02-20 04:25:51,69.45,-133.04,8.6,84,75,10.29,light snow,0,0
177,Husavik,IS,2020-02-20 04:25:52,66.04,-17.34,33.8,97,90,16.11,overcast clouds,0,0
178,Batagay-Alyta,RU,2020-02-20 04:25:52,67.8,130.41,-7.58,85,89,5.77,overcast clouds,0,0
179,Upata,VE,2020-02-20 04:25:52,8.01,-62.4,71.83,74,22,7.54,few clouds,0,0
180,Lazaro Cardenas,MX,2020-02-20 04:25:52,17.96,-102.2,73.24,72,11,1.3,few clouds,0,0
181,Isabela,PH,2020-02-20 04:25:53,6.71,121.97,89.6,62,20,4.7,few clouds,0,0
182,Mayya,RU,2020-02-20 04:25:53,61.73,130.28,-22.0,67,76,2.86,mist,0,0
183,Plettenberg Bay,ZA,2020-02-20 04:25:53,-34.05,23.37,72.93,63,0,6.15,clear sky,0,0
184,Krutikha,RU,2020-02-20 04:22:03,53.96,81.21,27.23,95,100,12.53,light snow,0,0.44
185,Kavaratti,IN,2020-02-20 04:25:53,10.57,72.64,82.4,74,20,4.7,few clouds,0,0
186,Leningradskiy,RU,2020-02-20 04:25:54,69.38,178.42,-9.8,92,100,21.68,overcast clouds,0,0
187,Quelimane,MZ,2020-02-20 04:25:54,-17.88,36.89,80.6,94,40,3.36,scattered clouds,0,0
188,Aden,YE,2020-02-20 04:25:54,12.78,45.04,73.72,80,33,5.91,scattered clouds,0,0
189,Vao,NC,2020-02-20 04:25:55,-22.67,167.48,79.18,73,47,8.23,scattered clouds,0,0
190,Tsybli,UA,2020-02-20 04:25:55,49.99,31.56,32.0,78,79,4.47,broken clouds,0,0
191,Hit,IQ,2020-02-20 04:25:55,33.64,42.83,55.26,82,36,13.24,scattered clouds,0,0
192,Saldanha,ZA,2020-02-20 04:25:55,-33.01,17.94,66.2,88,25,9.17,scattered clouds,0,0
193,Bonavista,CA,2020-02-20 04:25:55,48.65,-53.11,30.0,67,31,25.99,scattered clouds,0,0
194,Coquimbo,CL,2020-02-20 04:25:56,-29.95,-71.34,59.0,93,75,6.93,broken clouds,0,0
195,Soyo,AO,2020-02-20 04:25:56,-6.13,12.37,75.18,86,91,3.31,overcast clouds,0,0
196,Sladkovo,RU,2020-02-20 04:25:56,55.53,70.34,25.25,92,100,15.68,light snow,0,0.5
197,Chokurdakh,RU,2020-02-20 04:25:56,70.63,147.92,-11.54,90,72,7.09,broken clouds,0,0
198,Hamilton,US,2020-02-20 04:24:42,39.18,-84.53,33.01,60,1,4.7,clear sky,0,0
199,Buala,SB,2020-02-20 04:25:57,-8.14,159.59,87.13,66,19,12.24,few clouds,0,0
200,Pastavy,BY,2020-02-20 04:25:57,55.12,26.83,33.22,93,37,7.63,scattered clouds,0,0
201,Alofi,NU,2020-02-20 04:25:57,-19.06,-169.92,80.6,78,100,16.11,light rain,0.13,0
202,Valparaiso,CL,2020-02-20 04:25:57,-33.04,-71.63,55.4,87,0,0.96,clear sky,0,0
203,Presidente Medici,BR,2020-02-20 04:25:58,-11.18,-61.9,76.19,87,100,3.51,overcast clouds,0,0
204,Santiago Del Estero,AR,2020-02-20 04:25:58,-27.8,-64.26,70.84,59,0,2.44,clear sky,0,0
205,Lasa,IT,2020-02-20 04:25:58,46.62,10.7,28.0,85,5,4.7,clear sky,0,0
206,Okato,NZ,2020-02-20 04:25:58,-39.2,173.88,75.99,58,0,5.99,clear sky,0,0
207,Mbandaka,CD,2020-02-20 04:25:58,0.05,18.26,70.5,90,0,2.48,clear sky,0,0
208,Nanae,JP,2020-02-20 04:25:59,41.88,140.68,37.4,47,40,12.75,scattered clouds,0,0
209,Clyde River,CA,2020-02-20 04:25:59,70.47,-68.59,-13.0,83,90,17.22,light snow,0,0
210,Tuy Hoa,VN,2020-02-20 04:25:59,13.08,109.3,75.54,74,64,17.9,light rain,0.38,0
211,Jacareacanga,BR,2020-02-20 04:25:59,-6.22,-57.75,73.71,99,100,2.8,overcast clouds,0,0
212,Tasiilaq,GL,2020-02-20 04:25:59,65.61,-37.64,21.2,73,68,2.24,light shower snow,0,0
213,Brae,GB,2020-02-20 04:26:00,60.4,-1.35,44.6,81,100,21.92,light rain,0.13,0
214,Lompoc,US,2020-02-20 04:25:50,34.64,-120.46,54.0,87,90,3.36,overcast clouds,0,0
215,Zhigansk,RU,2020-02-20 04:26:00,66.77,123.37,-8.68,96,100,21.74,light snow,0,0.56
216,Chipata,ZM,2020-02-20 04:26:00,-13.63,32.65,66.11,97,100,2.55,light rain,1.69,0
217,Davila,PH,2020-02-20 04:26:01,18.47,120.58,82.4,48,20,11.41,few clouds,0,0
218,Kupang,ID,2020-02-20 04:26:01,-10.17,123.58,86.0,84,40,11.41,scattered clouds,0,0
219,Puerto Escondido,MX,2020-02-20 04:26:01,15.85,-97.07,72.77,59,0,4.09,clear sky,0,0
220,Fairbanks,US,2020-02-20 04:26:01,64.84,-147.72,17.6,92,90,4.7,overcast clouds,0,0
221,Srednekolymsk,RU,2020-02-20 04:26:01,67.45,153.68,-14.6,95,82,5.28,broken clouds,0,0
222,Saint Anthony,US,2020-02-20 04:26:02,45.02,-93.22,3.2,65,1,6.93,clear sky,0,0
223,Pisco,PE,2020-02-20 04:26:02,-13.7,-76.22,71.6,88,100,11.41,mist,0,0
224,Salme,NP,2020-02-20 04:26:02,28.04,85.09,59.0,82,75,3.36,mist,0,0
225,Lucapa,AO,2020-02-20 04:26:02,-8.42,20.74,65.5,97,91,3.06,overcast clouds,0,0
226,Samur,RU,2020-02-20 04:26:03,41.83,48.49,45.05,73,48,2.86,scattered clouds,0,0
227,Yerofey Pavlovich,RU,2020-02-20 04:26:03,53.97,121.97,8.1,77,0,3.27,clear sky,0,0
228,Yarada,IN,2020-02-20 04:26:03,17.65,83.27,82.4,58,20,5.82,haze,0,0
229,Olinda,BR,2020-02-20 04:25:14,-8.01,-34.86,77.0,88,75,13.87,thunderstorm with rain,0,0
230,Bilma,NE,2020-02-20 04:26:04,18.69,12.92,60.66,30,0,7.92,clear sky,0,0
231,Lukh,RU,2020-02-20 04:26:04,57.01,42.26,33.19,97,96,10.29,overcast clouds,0,0
232,Bolshaya Martynovka,RU,2020-02-20 04:26:04,47.27,41.67,33.3,95,100,5.48,overcast clouds,0,0
233,Ponta Do Sol,PT,2020-02-20 04:26:04,32.67,-17.1,60.8,59,40,9.17,scattered clouds,0,0
234,Souillac,MU,2020-02-20 04:26:05,-20.52,57.52,80.6,69,40,8.05,scattered clouds,0,0
235,Isangel,VU,2020-02-20 04:26:05,-19.55,169.27,84.2,70,75,5.82,broken clouds,0,0
236,Kaitangata,NZ,2020-02-20 04:26:05,-46.28,169.85,62.01,79,86,15.01,overcast clouds,0,0
237,Pevek,RU,2020-02-20 04:26:05,69.7,170.31,-14.46,98,100,5.28,light snow,0,0.13
238,Sinnamary,GF,2020-02-20 04:26:05,5.38,-52.95,78.55,75,87,16.02,light rain,0.13,0
239,Pokaran,IN,2020-02-20 04:26:06,26.92,71.92,64.89,22,0,12.95,clear sky,0,0
240,Sapa,PH,2020-02-20 04:26:06,5.15,120.32,82.72,73,0,12.5,clear sky,0,0
241,Kanniyakumari,IN,2020-02-20 04:26:06,8.08,77.57,77.81,74,0,30.31,clear sky,0,0
242,Beringovskiy,RU,2020-02-20 04:26:06,63.05,179.32,-11.72,85,0,18.63,clear sky,0,0
243,Port Elizabeth,ZA,2020-02-20 04:26:07,-33.92,25.57,66.2,93,70,2.24,broken clouds,0,0
244,Alyangula,AU,2020-02-20 04:26:07,-13.85,136.42,82.4,83,40,5.82,scattered clouds,0,0
245,Opuwo,NA,2020-02-20 04:26:07,-18.06,13.84,64.33,36,100,1.9,overcast clouds,0,0
246,Dikson,RU,2020-02-20 04:26:07,73.51,80.55,12.02,95,100,9.82,overcast clouds,0,0
247,Saint George,US,2020-02-20 04:22:26,37.1,-113.58,48.99,23,1,19.46,clear sky,0,0
248,San Quintin,MX,2020-02-20 04:26:08,30.48,-115.95,57.42,90,0,11.12,clear sky,0,0
249,Nikki,BJ,2020-02-20 04:26:08,9.94,3.21,70.18,18,0,5.79,clear sky,0,0
250,Andenes,NO,2020-02-20 04:26:08,69.31,16.12,26.01,73,76,16.11,light snow,0,0.38
251,Nishihara,JP,2020-02-20 04:26:08,26.18,127.76,71.6,46,40,8.05,scattered clouds,0,0
252,Henderson,US,2020-02-20 04:26:09,36.04,-114.98,57.2,22,1,11.41,clear sky,0,0
253,Halifax,CA,2020-02-20 04:26:09,44.65,-63.57,26.01,49,20,24.16,few clouds,0,0
254,Tessalit,ML,2020-02-20 04:26:09,20.2,1.01,64.94,15,7,15.05,clear sky,0,0
255,Hofn,IS,2020-02-20 04:26:09,64.25,-15.21,41.49,88,94,19.1,light rain,1.88,0
256,Sawtell,AU,2020-02-20 04:26:09,-30.38,153.1,82.0,54,0,11.41,clear sky,0,0
257,Bilecik,TR,2020-02-20 04:26:10,40.0,30.17,37.4,71,75,2.24,broken clouds,0,0
258,Popova,RU,2020-02-20 04:26:10,42.96,131.72,30.2,28,0,8.95,clear sky,0,0
259,Ambon,ID,2020-02-20 04:24:46,-3.7,128.18,89.6,62,40,11.41,scattered clouds,0,0
260,Illela,NG,2020-02-20 04:26:10,13.73,5.3,66.38,19,0,16.06,clear sky,0,0
261,Vertientes,CU,2020-02-20 04:26:11,21.26,-78.15,75.2,94,5,11.41,clear sky,0,0
262,Touros,BR,2020-02-20 04:26:11,-5.2,-35.46,77.0,94,75,6.93,broken clouds,0,0
263,Carnarvon,AU,2020-02-20 04:26:11,-24.87,113.63,91.4,49,40,14.99,scattered clouds,0,0
264,Chicla,PE,2020-02-20 04:26:11,-11.71,-76.27,40.53,87,100,4.74,moderate rain,4.5,0
265,Silopi,TR,2020-02-20 04:26:11,37.25,42.47,49.64,96,100,4.05,moderate rain,4.38,0
266,Rawson,AR,2020-02-20 04:26:12,-43.3,-65.1,60.75,51,0,15.28,clear sky,0,0
267,Tanout,NE,2020-02-20 04:26:12,14.97,8.89,59.94,27,0,11.3,clear sky,0,0
268,Mokhsogollokh,RU,2020-02-20 04:26:12,61.47,128.92,-8.63,95,88,1.9,overcast clouds,0,0
269,Labuhan,ID,2020-02-20 04:26:12,-6.88,112.21,78.57,88,100,7.99,light rain,0.25,0
270,Huanren,CN,2020-02-20 04:26:13,41.26,125.37,23.56,85,0,2.17,clear sky,0,0
271,Ratnagiri,IN,2020-02-20 04:26:13,16.98,73.3,77.79,43,98,1.86,overcast clouds,0,0
272,Zeya,RU,2020-02-20 04:26:13,53.75,127.27,1.22,73,0,3.76,clear sky,0,0
273,Troina,IT,2020-02-20 04:26:13,37.79,14.6,55.99,76,5,18.34,clear sky,0,0
274,Tautira,PF,2020-02-20 04:26:14,-17.73,-149.15,84.2,66,20,10.29,few clouds,0,0
275,Torbat-E Jam,IR,2020-02-20 04:26:14,35.24,60.62,34.43,52,100,2.8,overcast clouds,0,0
276,Nieuw Nickerie,SR,2020-02-20 04:26:14,5.95,-56.98,78.75,75,100,16.46,light rain,0.19,0
277,Dalaba,GN,2020-02-20 04:26:14,10.7,-12.25,65.16,49,0,2.1,clear sky,0,0
278,Goderich,CA,2020-02-20 04:21:38,43.75,-81.72,25.0,43,86,1.99,overcast clouds,0,0
279,Praia Da Vitoria,PT,2020-02-20 04:26:15,38.73,-27.07,53.6,66,40,22.08,scattered clouds,0,0
280,Ossora,RU,2020-02-20 04:26:15,59.24,163.07,3.15,79,1,8.81,clear sky,0,0
281,Blagoveshchenka,RU,2020-02-20 04:26:15,52.83,79.87,26.04,95,100,15.82,light snow,0,1.06
282,Mandera,KE,2020-02-20 04:26:15,3.94,41.87,76.91,75,57,10.54,broken clouds,0,0
283,Tecoanapa,MX,2020-02-20 04:26:16,16.52,-98.75,74.53,57,0,1.34,clear sky,0,0
284,Galabovo,BG,2020-02-20 04:26:16,42.14,25.87,42.8,100,75,4.7,moderate rain,0,0
285,Baijiantan,CN,2020-02-20 04:26:16,45.63,85.18,18.01,91,99,7.94,overcast clouds,0,0
286,Miri,MY,2020-02-20 04:26:16,4.41,114.01,89.6,70,75,10.29,broken clouds,0,0
287,Saskylakh,RU,2020-02-20 04:26:17,71.92,114.08,-8.79,97,0,5.61,clear sky,0,0
288,Herat,AF,2020-02-20 04:26:17,34.5,62.0,42.8,52,75,2.24,broken clouds,0,0
289,Kakonko,TZ,2020-02-20 04:26:17,-3.28,30.96,62.56,97,92,1.45,light rain,1.81,0
290,Tuatapere,NZ,2020-02-20 04:26:17,-46.13,167.68,72.84,45,100,5.82,overcast clouds,0,0
291,Naze,JP,2020-02-20 04:26:18,28.37,129.48,66.2,55,75,5.82,broken clouds,0,0
292,Venado Tuerto,AR,2020-02-20 04:26:18,-33.75,-61.97,64.0,64,0,18.57,clear sky,0,0
293,Kota Belud,MY,2020-02-20 04:26:18,6.35,116.43,86.0,70,20,4.7,few clouds,0,0
294,Kedougou,SN,2020-02-20 04:26:18,12.56,-12.17,78.8,29,7,4.7,clear sky,0,0
295,Constitucion,CL,2020-02-20 04:26:19,-35.33,-72.42,60.98,39,0,5.64,clear sky,0,0
296,Kurumkan,RU,2020-02-20 04:26:19,54.3,110.3,7.45,85,100,2.21,overcast clouds,0,0
297,Senneterre,CA,2020-02-20 04:26:19,48.38,-77.23,-9.4,83,5,3.36,clear sky,0,0
298,Akcaabat,TR,2020-02-20 04:26:19,41.02,39.57,44.6,87,75,1.23,broken clouds,0,0
299,Susanino,RU,2020-02-20 04:26:19,58.15,41.59,32.45,97,100,9.44,light snow,0,0.13
300,Varzea Da Palma,BR,2020-02-20 04:26:20,-17.6,-44.73,66.97,92,77,5.73,light rain,0.31,0
301,Urumqi,CN,2020-02-20 04:26:20,43.8,87.6,26.6,68,75,4.47,broken clouds,0,0
302,Yulara,AU,2020-02-20 04:26:20,-25.24,130.99,93.2,16,98,10.29,overcast clouds,0,0
303,Takab,IR,2020-02-20 04:26:20,36.4,47.11,33.67,92,100,5.84,overcast clouds,0,0
304,Talara,PE,2020-02-20 04:26:21,-4.58,-81.27,75.31,90,0,12.93,clear sky,0,0
305,Saint-Philippe,RE,2020-02-20 04:26:21,-21.36,55.77,81.0,65,0,10.29,clear sky,0,0
306,Namibe,AO,2020-02-20 04:26:21,-15.2,12.15,74.46,70,100,7.4,overcast clouds,0,0
307,Provideniya,RU,2020-02-20 04:26:21,64.38,-173.3,1.4,64,100,6.71,overcast clouds,0,0
308,Carberry,CA,2020-02-20 04:26:21,49.87,-99.36,-11.2,69,5,9.17,clear sky,0,0
309,Deer Lake,CA,2020-02-20 04:26:22,49.17,-57.43,21.2,92,90,14.99,light snow,0,0
310,Warangal,IN,2020-02-20 04:26:22,18.0,79.58,71.96,74,0,14.9,clear sky,0,0
311,Mahon,ES,2020-02-20 04:26:22,39.89,4.27,44.6,87,0,6.93,clear sky,0,0
312,Tucuman,AR,2020-02-20 04:24:47,-26.82,-65.22,69.8,88,90,3.36,overcast clouds,0,0
313,Krasnoselkup,RU,2020-02-20 04:26:22,65.7,82.47,25.32,96,100,12.97,light snow,0,0.38
314,Burns Lake,CA,2020-02-20 04:26:23,54.23,-125.75,19.42,94,100,3.94,overcast clouds,0,0
315,Price,US,2020-02-20 04:23:46,39.6,-110.81,23.0,53,1,10.29,clear sky,0,0
316,Vanimo,PG,2020-02-20 04:26:23,-2.67,141.3,81.48,73,76,10.83,broken clouds,0,0
317,Klaksvik,FO,2020-02-20 04:26:23,62.23,-6.59,37.4,69,100,26.4,light rain,0,0
318,Lavrentiya,RU,2020-02-20 04:26:24,65.58,-171.0,-8.97,83,96,9.17,overcast clouds,0,0
319,Bathsheba,BB,2020-02-20 04:26:24,13.22,-59.52,77.0,69,40,20.8,scattered clouds,0,0
320,Chapais,CA,2020-02-20 04:25:05,49.78,-74.85,-20.2,75,1,5.82,clear sky,0,0
321,Ponta Delgada,PT,2020-02-20 04:26:24,37.73,-25.67,53.6,62,20,17.22,few clouds,0,0
322,Shimoda,JP,2020-02-20 04:26:25,34.67,138.95,57.99,58,75,6.93,broken clouds,0,0
323,Zaysan,KZ,2020-02-20 04:26:25,47.47,84.87,18.7,86,89,3.76,overcast clouds,0,0
324,Aldan,RU,2020-02-20 04:26:25,58.6,125.39,0.66,84,94,4.25,overcast clouds,0,0
325,Muisne,EC,2020-02-20 04:26:25,0.6,-80.03,76.93,92,89,2.68,moderate rain,3.75,0
326,Alice Springs,AU,2020-02-20 04:23:32,-23.7,133.88,91.4,9,0,10.29,clear sky,0,0
327,Ngunguru,NZ,2020-02-20 04:26:26,-35.62,174.5,79.0,64,0,7.0,clear sky,0,0
328,Tyup,KG,2020-02-20 04:26:26,42.73,78.36,16.79,50,0,0.87,clear sky,0,0
329,Alindao,CF,2020-02-20 04:26:26,5.03,21.21,71.64,76,2,4.76,clear sky,0,0
330,Karasburg,NA,2020-02-20 04:26:26,-28.02,18.75,75.88,48,93,13.47,overcast clouds,0,0
331,Sao Joao Da Barra,BR,2020-02-20 04:26:27,-21.64,-41.05,78.06,82,99,18.9,overcast clouds,0,0
332,Neiafu,TO,2020-02-20 04:26:27,-18.65,-173.98,82.4,74,40,4.7,scattered clouds,0,0
333,Provost,CA,2020-02-20 04:26:27,52.35,-110.27,10.74,78,0,8.79,clear sky,0,0
334,Talnakh,RU,2020-02-20 04:26:27,69.49,88.4,14.0,92,75,29.08,light snow,0,0
335,Racine,US,2020-02-20 04:26:27,42.75,-88.08,19.0,46,1,8.05,clear sky,0,0
336,Yantal,RU,2020-02-20 04:26:28,56.85,105.25,13.17,91,34,7.02,scattered clouds,0,0
337,Nena,PH,2020-02-20 04:26:28,11.77,125.42,79.77,79,28,17.98,light rain,1.5,0
338,Sarangani,PH,2020-02-20 04:26:28,5.4,125.46,80.56,75,0,27.67,clear sky,0,0
339,Batemans Bay,AU,2020-02-20 04:26:28,-35.72,150.18,75.0,66,0,5.01,clear sky,0,0
340,Klyuchevskiy,RU,2020-02-20 04:26:28,53.53,119.45,7.07,79,0,2.62,clear sky,0,0
341,Deputatskiy,RU,2020-02-20 04:26:29,69.3,139.9,-4.32,93,100,3.58,overcast clouds,0,0
342,Dana Point,US,2020-02-20 04:26:29,33.47,-117.7,59.0,81,1,3.36,clear sky,0,0
343,Gat,IL,2020-02-20 04:23:02,31.61,34.76,57.0,93,75,3.36,broken clouds,0,0
344,Barabai,ID,2020-02-20 04:26:29,-2.58,115.38,89.55,55,22,3.6,few clouds,0,0
345,Mitu,CO,2020-02-20 04:26:30,1.2,-70.17,73.99,84,5,1.34,clear sky,0,0
346,Port Lincoln,AU,2020-02-20 04:26:30,-34.73,135.87,63.32,60,100,9.95,overcast clouds,0,0
347,Chara,RU,2020-02-20 04:26:30,56.91,118.26,-6.34,77,27,2.13,scattered clouds,0,0
348,Astoria,US,2020-02-20 04:26:31,46.19,-123.83,50.0,42,1,3.36,clear sky,0,0
349,Lagoa,PT,2020-02-20 04:26:31,39.05,-27.98,54.7,64,0,17.69,clear sky,0,0
350,Kattivakkam,IN,2020-02-20 04:26:31,13.22,80.32,82.4,58,40,3.36,haze,0,0
351,Loa Janan,ID,2020-02-20 04:26:31,-0.58,117.09,87.96,55,86,6.35,overcast clouds,0,0
352,Pemangkat,ID,2020-02-20 04:26:32,1.17,108.97,84.31,70,0,10.16,clear sky,0,0
353,Arequipa,PE,2020-02-20 04:26:32,-16.4,-71.53,59.0,87,90,4.7,overcast clouds,0,0
354,San Isidro,PE,2020-02-20 04:26:32,-12.12,-77.05,75.2,88,40,11.41,scattered clouds,0,0
355,Cockburn Town,TC,2020-02-20 04:26:32,21.46,-71.14,77.9,78,0,18.72,clear sky,0,0
356,Codrington,AU,2020-02-20 04:26:32,-38.27,141.97,58.44,71,99,11.7,overcast clouds,0,0
357,Arsikere,IN,2020-02-20 04:26:33,13.31,76.26,70.36,56,0,8.43,clear sky,0,0
358,Sorland,NO,2020-02-20 04:26:33,67.67,12.69,32.0,68,75,11.41,broken clouds,0,0
359,Porto Recanati,IT,2020-02-20 04:26:33,43.44,13.66,52.0,57,64,14.99,broken clouds,0,0
360,Bunia,CD,2020-02-20 04:26:33,1.57,30.25,70.5,79,20,1.12,light rain,0.13,0
361,Luena,AO,2020-02-20 04:26:33,-11.78,19.92,63.73,98,100,1.7,moderate rain,5.5,0
362,San Patricio,MX,2020-02-20 04:26:34,19.22,-104.7,76.28,79,0,4.21,clear sky,0,0
363,Huarmey,PE,2020-02-20 04:26:34,-10.07,-78.15,73.49,72,100,1.41,overcast clouds,0,0
364,Ostrovnoy,RU,2020-02-20 04:26:34,68.05,39.51,5.22,86,75,7.47,broken clouds,0,0
365,Karpathos,GR,2020-02-20 04:26:35,35.51,27.21,57.2,71,2,8.05,clear sky,0,0
366,Lucea,JM,2020-02-20 04:26:35,18.45,-78.17,77.0,78,20,2.24,few clouds,0,0
367,Placentia,IT,2020-02-20 04:25:02,45.05,9.7,44.01,100,18,3.36,few clouds,0,0
368,Sal Rei,CV,2020-02-20 04:26:35,16.18,-22.92,70.34,83,49,19.62,scattered clouds,0,0
369,Kaduna,NG,2020-02-20 04:24:29,10.52,7.44,67.66,20,0,10.07,clear sky,0,0
370,San Antonio,US,2020-02-20 04:22:02,29.42,-98.49,50.0,87,90,9.17,overcast clouds,0,0
371,Hindang,PH,2020-02-20 04:26:36,10.43,124.73,88.0,59,77,5.01,broken clouds,0,0
372,East London,ZA,2020-02-20 04:26:36,-33.02,27.91,69.8,94,100,5.82,overcast clouds,0,0
373,Faya,SA,2020-02-20 04:26:36,18.39,42.45,57.2,82,100,5.82,overcast clouds,0,0
374,Hualmay,PE,2020-02-20 04:26:37,-11.1,-77.61,71.96,79,100,4.21,overcast clouds,0,0
375,Bardsir,IR,2020-02-20 04:26:37,29.92,56.57,50.0,43,75,4.7,broken clouds,0,0
376,Vilyuysk,RU,2020-02-20 04:26:37,63.76,121.62,5.86,93,100,7.63,light snow,0,0.13
377,Vestmanna,FO,2020-02-20 04:26:37,62.16,-7.17,37.4,69,100,26.4,light rain,0,0
378,Rundu,NA,2020-02-20 04:26:38,-17.93,19.77,68.07,91,100,3.42,light rain,0.94,0
379,Babag,PH,2020-02-20 04:26:38,7.73,126.07,82.26,55,3,10.4,clear sky,0,0
380,Taunggyi,MM,2020-02-20 04:26:38,20.78,97.03,74.68,32,0,3.91,clear sky,0,0
381,Revelstoke,CA,2020-02-20 04:26:38,50.98,-118.2,19.4,92,1,3.29,clear sky,0,0
382,Kieta,PG,2020-02-20 04:26:38,-6.22,155.63,83.88,77,26,20.92,light rain,2.56,0
383,Igcocolo,PH,2020-02-20 04:26:39,10.69,122.32,81.09,73,100,26.02,light rain,0.44,0
384,Namatanai,PG,2020-02-20 04:26:39,-3.67,152.43,83.77,74,5,11.95,light rain,1.44,0
385,Manoel Urbano,BR,2020-02-20 04:26:39,-8.84,-69.26,74.03,94,100,2.06,overcast clouds,0,0
386,Tual,ID,2020-02-20 04:26:39,-5.67,132.75,80.58,82,100,15.7,moderate rain,3.88,0
387,Bagdarin,RU,2020-02-20 04:26:39,54.43,113.6,5.13,84,100,2.24,overcast clouds,0,0
388,Comodoro Rivadavia,AR,2020-02-20 04:26:40,-45.87,-67.5,59.0,54,0,10.29,clear sky,0,0
389,Jiaojiang,CN,2020-02-20 04:26:40,28.68,121.44,64.99,47,0,4.0,clear sky,0,0
390,Thinadhoo,MV,2020-02-20 04:24:05,0.53,72.93,83.19,76,82,14.92,broken clouds,0,0
391,Necochea,AR,2020-02-20 04:26:40,-38.55,-58.74,60.01,66,1,14.0,clear sky,0,0
392,Dosso,NE,2020-02-20 04:26:40,13.05,3.19,68.58,17,0,10.74,clear sky,0,0
393,Astana,KZ,2020-02-20 04:26:41,51.18,71.45,19.4,85,100,20.13,overcast clouds,0,0
394,Yaan,NG,2020-02-20 04:26:41,7.38,8.57,74.14,19,6,1.79,clear sky,0,0
395,Jepelacio,PE,2020-02-20 04:26:41,-6.12,-76.95,65.32,91,86,1.1,overcast clouds,0,0
396,Ilulissat,GL,2020-02-20 04:26:41,69.22,-51.1,-0.4,64,100,2.82,overcast clouds,0,0
397,Caldwell,US,2020-02-20 04:26:42,43.66,-116.69,33.8,68,1,8.05,clear sky,0,0
398,Mantua,IT,2020-02-20 04:26:42,45.17,10.78,44.01,90,0,6.93,clear sky,0,0
399,Sur,OM,2020-02-20 04:26:42,22.57,59.53,67.62,42,10,4.0,clear sky,0,0
400,Japura,ID,2020-02-20 04:26:42,-0.32,102.35,80.04,88,69,4.94,light rain,1.81,0
401,Turukhansk,RU,2020-02-20 04:26:43,65.82,87.98,15.76,93,100,12.44,light snow,0,0.63
402,Murgab,TM,2020-02-20 04:26:43,37.5,61.97,37.15,64,2,16.8,clear sky,0,0
403,Lorengau,PG,2020-02-20 04:26:43,-2.02,147.27,83.3,74,96,13.69,light rain,1.5,0
404,Tangier,MA,2020-02-20 04:26:43,35.78,-5.81,59.0,77,20,19.46,few clouds,0,0
405,Gewane,ET,2020-02-20 04:26:43,10.17,40.65,77.23,42,72,6.26,broken clouds,0,0
406,Kidal,ML,2020-02-20 04:26:44,18.44,1.41,66.47,13,73,13.85,broken clouds,0,0
407,College,US,2020-02-20 04:26:44,64.86,-147.8,18.0,92,90,4.7,overcast clouds,0,0
408,Palestine,PS,2020-02-20 04:26:44,31.92,35.2,57.0,93,75,3.36,broken clouds,0,0
409,Maldonado,UY,2020-02-20 04:26:44,-34.67,-54.92,66.2,82,11,5.82,few clouds,0,0
410,Khatanga,RU,2020-02-20 04:26:45,71.97,102.5,-11.25,83,0,3.94,clear sky,0,0
411,Okahandja,NA,2020-02-20 04:25:04,-21.98,16.92,64.99,90,100,0.22,light rain,0.69,0
412,Baleshwar,IN,2020-02-20 04:26:45,21.49,86.93,76.01,59,100,7.47,overcast clouds,0,0
413,Tigil,RU,2020-02-20 04:26:45,57.8,158.67,-3.84,93,100,2.44,overcast clouds,0,0
414,Tura,IN,2020-02-20 04:26:45,25.52,90.22,73.69,39,100,3.36,overcast clouds,0,0
415,Dudinka,RU,2020-02-20 04:26:46,69.41,86.18,14.0,92,75,29.08,light snow,0,0
416,Ucluelet,CA,2020-02-20 04:26:46,48.93,-125.55,34.0,92,92,3.4,overcast clouds,0,0
417,Graaff-Reinet,ZA,2020-02-20 04:24:06,-32.25,24.53,66.0,93,55,3.0,broken clouds,0,0
418,Raga,SS,2020-02-20 04:26:46,8.46,25.68,68.41,27,15,5.03,few clouds,0,0
419,Passo De Camaragibe,BR,2020-02-20 04:26:46,-9.24,-35.49,75.2,94,40,2.24,scattered clouds,0,0
420,Havelock,US,2020-02-20 04:26:47,34.88,-76.9,48.99,45,90,11.41,overcast clouds,0,0
421,Chase,CA,2020-02-20 04:26:47,50.82,-119.69,28.4,68,5,9.17,clear sky,0,0
422,Bushehr,IR,2020-02-20 04:26:47,28.97,50.84,69.8,52,90,4.7,overcast clouds,0,0
423,Tornio,FI,2020-02-20 04:26:47,65.85,24.13,-5.8,76,40,2.24,scattered clouds,0,0
424,Marawi,PH,2020-02-20 04:26:47,8.0,124.29,82.0,78,0,8.99,clear sky,0,0
425,Longyearbyen,SJ,2020-02-20 04:24:23,78.22,15.64,8.6,65,75,26.4,broken clouds,0,0
426,Nome,US,2020-02-20 04:26:40,64.5,-165.41,7.0,71,90,12.75,light snow,0,0
427,Troitskoye,RU,2020-02-20 04:26:48,52.98,84.68,24.08,93,100,15.66,light snow,0,0.69
428,Mayo,US,2020-02-20 04:25:55,38.89,-76.51,41.0,48,1,4.7,clear sky,0,0
429,Tigzirt,DZ,2020-02-20 04:26:48,36.89,4.12,53.69,66,0,8.21,clear sky,0,0
430,Orlik,RU,2020-02-20 04:26:49,52.52,99.83,-2.6,84,100,3.83,overcast clouds,0,0
431,Quthing,LS,2020-02-20 04:26:49,-30.4,27.7,60.19,89,81,2.17,light rain,0.19,0
432,Waipawa,NZ,2020-02-20 04:26:49,-41.41,175.52,72.0,72,83,6.93,broken clouds,0,0
433,Charlottetown,CA,2020-02-20 04:23:58,46.24,-63.13,14.0,43,20,21.92,few clouds,0,0
434,Alangayam,IN,2020-02-20 04:26:49,12.6,78.75,71.89,64,0,3.67,clear sky,0,0
435,Verkhnevilyuysk,RU,2020-02-20 04:26:50,63.45,120.32,8.06,89,100,6.96,overcast clouds,0,0
436,Arman,RU,2020-02-20 04:26:50,59.7,150.17,-0.58,72,0,4.09,clear sky,0,0
437,Pitimbu,BR,2020-02-20 04:26:50,-7.47,-34.81,75.2,100,90,6.93,light rain,0,0
438,Jiuquan,CN,2020-02-20 04:26:50,39.74,98.52,18.95,61,66,2.39,broken clouds,0,0
439,Qaqortoq,GL,2020-02-20 04:26:50,60.72,-46.03,6.8,46,100,6.93,overcast clouds,0,0
440,Itoman,JP,2020-02-20 04:26:51,26.12,127.67,71.6,46,40,8.05,scattered clouds,0,0
441,Kasempa,ZM,2020-02-20 04:26:51,-13.46,25.83,63.68,97,94,2.59,light rain,1.56,0
442,Broken Hill,AU,2020-02-20 04:26:51,-31.95,141.43,75.2,27,89,11.41,overcast clouds,0,0
443,Port Blair,IN,2020-02-20 04:26:51,11.67,92.75,84.2,74,40,9.17,mist,0,0
444,Poum,NC,2020-02-20 04:26:52,-20.23,164.02,80.62,78,0,15.66,clear sky,0,0
445,Araguacu,BR,2020-02-20 04:26:52,-12.93,-49.83,73.99,85,100,3.56,overcast clouds,0,0
446,Tuusula,FI,2020-02-20 04:26:52,60.42,25.0,34.0,80,90,8.05,overcast clouds,0,0
447,Cururupu,BR,2020-02-20 04:26:52,-1.83,-44.87,74.37,99,100,2.44,light rain,0.75,0
448,Star,US,2020-02-20 04:26:22,43.69,-116.49,33.8,68,1,8.05,clear sky,0,0
449,Pineville,US,2020-02-20 04:26:53,31.32,-92.43,51.01,93,90,6.08,light rain,0,0
450,Udobnaya,RU,2020-02-20 04:26:53,44.19,41.55,35.01,8,30,1.99,scattered clouds,0,0
451,Camacha,PT,2020-02-20 04:26:53,33.08,-16.33,60.8,62,75,13.87,broken clouds,0,0
452,Yeppoon,AU,2020-02-20 04:26:53,-23.13,150.73,96.8,47,20,3.36,few clouds,0,0
453,Mount Isa,AU,2020-02-20 04:22:59,-20.73,139.5,96.8,19,0,9.17,clear sky,0,0
454,Bolivar,US,2020-02-20 04:23:14,37.61,-93.41,42.01,44,90,12.75,overcast clouds,0,0
455,Rocha,UY,2020-02-20 04:23:26,-34.48,-54.33,62.76,76,19,5.48,few clouds,0,0
456,Ketchikan,US,2020-02-20 04:26:54,55.34,-131.65,37.4,100,90,5.82,overcast clouds,0,0
457,Flin Flon,CA,2020-02-20 04:26:54,54.77,-101.86,0.99,88,0,10.63,clear sky,0,0
458,Ulaangom,MN,2020-02-20 04:26:54,49.98,92.07,-4.52,95,99,0.98,overcast clouds,0,0
459,Digby,CA,2020-02-20 04:26:55,44.62,-65.77,24.01,60,95,17.0,overcast clouds,0,0
460,Salgueiro,BR,2020-02-20 04:26:55,-8.07,-39.12,73.8,62,100,10.58,overcast clouds,0,0
461,Tacna,PE,2020-02-20 04:26:55,-18.01,-70.25,73.4,77,100,3.22,light rain,0.25,0
462,Palmital,BR,2020-02-20 04:26:56,-22.79,-50.22,72.14,88,100,1.23,overcast clouds,0,0
463,Kloulklubed,PW,2020-02-20 04:26:56,7.04,134.26,78.8,88,90,4.7,shower rain,0,0
464,Bima,ID,2020-02-20 04:26:56,-8.47,118.72,75.45,93,100,2.08,overcast clouds,0,0
465,Sabalgarh,IN,2020-02-20 04:26:56,26.25,77.4,66.69,26,100,10.38,overcast clouds,0,0
466,Faro,PT,2020-02-20 04:23:43,37.02,-7.93,55.99,82,20,8.05,few clouds,0,0
467,Tchibanga,GA,2020-02-20 04:26:57,-2.85,11.03,72.95,95,93,1.54,overcast clouds,0,0
468,Le Port,RE,2020-02-20 04:26:57,-20.94,55.29,81.0,65,3,13.87,clear sky,0,0
469,Mango,US,2020-02-20 04:25:17,27.98,-82.31,75.0,88,90,8.25,overcast clouds,0,0
470,Levelland,US,2020-02-20 04:22:45,33.59,-102.38,42.8,70,90,8.05,overcast clouds,0,0
471,Carpinteria,US,2020-02-20 04:26:58,34.4,-119.52,55.99,87,1,3.36,clear sky,0,0
472,San Policarpo,PH,2020-02-20 04:26:58,12.18,125.51,79.77,79,28,17.98,light rain,1.5,0
473,Pingshan,CN,2020-02-20 04:26:59,22.99,114.71,66.0,51,2,4.21,clear sky,0,0
474,Kaeo,NZ,2020-02-20 04:26:59,-35.1,173.78,82.99,73,67,1.01,broken clouds,0,0
475,Mbala,ZM,2020-02-20 04:26:59,-8.84,31.37,60.76,92,56,1.48,broken clouds,0,0
476,Vestmannaeyjar,IS,2020-02-20 04:26:49,63.44,-20.27,37.08,83,80,24.81,broken clouds,0,0
477,Felipe Carrillo Puerto,MX,2020-02-20 04:26:59,19.58,-88.05,73.29,97,2,3.15,clear sky,0,0
478,Nicoya,CR,2020-02-20 04:27:00,10.15,-85.45,84.2,58,68,17.22,broken clouds,0,0
479,Byron Bay,AU,2020-02-20 04:22:43,-28.65,153.62,86.0,65,36,12.75,scattered clouds,0,0
480,Hearst,CA,2020-02-20 04:27:00,49.68,-83.67,-5.33,94,100,8.86,overcast clouds,0,0
481,Gashua,NG,2020-02-20 04:27:00,12.87,11.05,62.55,29,0,9.37,clear sky,0,0
482,Los Llanos De Aridane,ES,2020-02-20 04:27:01,28.66,-17.92,64.4,59,90,13.87,overcast clouds,0,0
483,Balkhash,KZ,2020-02-20 04:27:01,46.84,74.98,14.0,85,14,11.18,few clouds,0,0
484,Kirksville,US,2020-02-20 04:27:01,40.19,-92.58,21.2,79,75,14.99,broken clouds,0,0
485,Asau,RO,2020-02-20 04:27:01,46.43,26.4,35.01,92,100,3.36,overcast clouds,0,0
486,Ladario,BR,2020-02-20 04:27:01,-19.0,-57.6,75.87,94,100,3.36,light rain,0.44,0
487,Zhangjiakou,CN,2020-02-20 04:27:02,40.81,114.88,27.7,56,100,6.31,overcast clouds,0,0
488,Bellavista,PE,2020-02-20 04:27:02,-7.06,-76.59,62.6,100,40,1.14,scattered clouds,0,0
489,Bilibino,RU,2020-02-20 04:26:22,68.05,166.44,-21.75,95,100,2.46,overcast clouds,0,0
490,Harper,LR,2020-02-20 04:27:02,4.38,-7.72,76.64,95,89,2.66,light rain,0.94,0
491,Kondopoga,RU,2020-02-20 04:27:02,62.21,34.26,32.0,92,90,6.71,overcast clouds,0,0
492,Anshun,CN,2020-02-20 04:27:03,26.25,105.93,50.36,86,100,8.81,overcast clouds,0,0
493,Novikovo,RU,2020-02-20 04:27:03,51.15,37.89,32.97,83,100,0.83,overcast clouds,0,0
494,Juneau,US,2020-02-20 04:27:03,58.3,-134.42,37.4,86,90,5.82,light rain,0,0
495,Dickinson,US,2020-02-20 04:27:03,29.46,-95.05,59.0,93,90,10.29,light rain,0,0
496,Barinas,VE,2020-02-20 04:27:04,8.62,-70.21,83.17,54,4,5.77,clear sky,0,0
497,Belaya Gora,RU,2020-02-20 04:27:04,68.53,146.42,-10.3,96,99,6.15,overcast clouds,0,0
498,Korla,CN,2020-02-20 04:27:04,41.76,86.15,26.01,88,97,2.13,overcast clouds,0,0
499,Anqing,CN,2020-02-20 04:27:04,30.51,117.05,57.31,45,0,4.25,clear sky,0,0
500,Semnan,IR,2020-02-20 04:27:05,35.57,53.4,46.96,51,100,3.47,overcast clouds,0,0
501,Buta,CD,2020-02-20 04:27:05,2.79,24.73,69.85,94,95,1.97,overcast clouds,0,0
502,Khvorostyanka,RU,2020-02-20 04:27:05,52.61,48.96,31.91,94,100,4.29,overcast clouds,0,0
503,Jinchang,CN,2020-02-20 04:27:05,38.5,102.17,23.22,36,100,12.55,overcast clouds,0,0
504,Olafsvik,IS,2020-02-20 04:27:06,64.89,-23.71,34.47,82,100,46.15,light snow,0,0.31
505,Strezhevoy,RU,2020-02-20 04:27:06,60.73,77.59,32.0,94,75,11.18,broken clouds,0,0
506,Buces,RO,2020-02-20 04:27:06,46.18,22.93,34.56,74,100,2.55,overcast clouds,0,0
507,Marystown,CA,2020-02-20 04:27:06,47.17,-55.15,29.35,71,37,31.76,scattered clouds,0,0
508,Tonantins,BR,2020-02-20 04:27:07,-2.87,-67.8,75.45,96,80,1.01,light rain,2,0
509,Fort Dodge,US,2020-02-20 04:27:07,42.5,-94.17,10.4,77,1,8.57,clear sky,0,0
510,Carlisle,US,2020-02-20 04:24:30,40.2,-77.19,36.0,47,1,3.36,clear sky,0,0
511,Ouro Preto Do Oeste,BR,2020-02-20 04:27:07,-10.75,-62.22,76.19,87,100,3.51,overcast clouds,0,0
512,Villa Bisono,DO,2020-02-20 04:27:07,19.56,-70.88,73.99,100,20,8.32,few clouds,0,0
513,Papagaios,BR,2020-02-20 04:27:08,-19.45,-44.75,67.32,94,32,4.9,scattered clouds,0,0
514,Alexandria,EG,2020-02-20 04:27:08,31.22,29.96,51.8,93,40,4.7,scattered clouds,0,0
515,Papetoai,PF,2020-02-20 04:27:08,-17.5,-149.87,84.2,66,20,10.29,few clouds,0,0
516,Sikonge,TZ,2020-02-20 04:27:08,-5.63,32.77,64.4,100,20,2.3,few clouds,0,0
517,Tanda,IN,2020-02-20 04:25:16,26.55,82.65,62.92,53,100,5.23,overcast clouds,0,0
518,Pinawa,CA,2020-02-20 04:27:09,50.15,-95.88,-13.49,95,0,5.97,clear sky,0,0
519,Peace River,CA,2020-02-20 04:27:09,56.25,-117.29,21.2,62,20,3.36,few clouds,0,0
520,Metro,ID,2020-02-20 04:27:09,-5.11,105.31,83.86,71,0,16.71,clear sky,0,0
521,Eydhafushi,MV,2020-02-20 04:27:09,5.1,73.07,81.59,73,0,18.07,clear sky,0,0
522,Idah,NG,2020-02-20 04:27:10,7.11,6.73,73.83,39,0,3.6,clear sky,0,0
523,Hun,LY,2020-02-20 04:27:10,29.13,15.95,49.75,56,0,1.48,clear sky,0,0
524,Kandrian,PG,2020-02-20 04:27:10,-6.22,149.55,79.7,86,77,11.83,moderate rain,3.44,0
525,San Rafael,AR,2020-02-20 04:23:51,-34.62,-68.33,69.75,25,0,7.74,clear sky,0,0
526,Oktyabrskiy,RU,2020-02-20 04:27:10,54.48,53.47,31.91,98,100,4.47,light snow,0,0.31
527,Oblivskaya,RU,2020-02-20 04:27:11,48.54,42.5,33.55,96,100,5.86,overcast clouds,0,0
528,Midyat,TR,2020-02-20 04:27:11,37.42,41.34,50.0,66,75,11.41,broken clouds,0,0
529,Basco,PH,2020-02-20 04:27:11,20.45,121.97,70.72,70,99,21.59,overcast clouds,0,0
530,Farmington,US,2020-02-20 04:27:11,36.73,-108.22,37.4,27,1,6.53,clear sky,0,0
531,Liku,ID,2020-02-20 04:27:12,-0.73,119.89,77.67,88,1,3.71,light rain,2.69,0
532,Zemio,CF,2020-02-20 04:27:12,5.03,25.14,67.59,74,0,2.1,clear sky,0,0
533,Sile,TR,2020-02-20 04:27:12,41.18,29.61,48.0,87,75,8.05,broken clouds,0,0
534,Goldsboro,US,2020-02-20 04:27:12,35.38,-77.99,48.2,57,90,6.93,overcast clouds,0,0
535,Manzanillo,CU,2020-02-20 04:27:13,20.34,-77.12,76.41,69,68,8.81,broken clouds,0,0
536,Jimo,CN,2020-02-20 04:27:13,36.39,120.46,53.6,37,0,8.95,clear sky,0,0
537,Santa Cruz,BO,2020-02-20 04:27:13,-17.8,-63.17,75.2,94,75,2.24,broken clouds,0,0
538,San Cristobal,VE,2020-02-20 04:27:13,7.77,-72.22,82.4,65,20,2.24,few clouds,0,0
539,Kirn,DE,2020-02-20 04:27:13,49.78,7.45,44.01,93,75,13.87,broken clouds,0,0
540,Cibitoke,BI,2020-02-20 04:27:14,-2.88,29.25,57.52,94,90,1.34,light rain,0.19,0
541,Skjervoy,NO,2020-02-20 04:27:14,70.03,20.97,28.78,62,100,12.95,overcast clouds,0,0
542,Manokwari,ID,2020-02-20 04:27:14,-0.87,134.08,81.81,67,23,10.07,few clouds,0,0
543,Tabou,CI,2020-02-20 04:27:14,4.42,-7.35,76.64,95,89,2.66,light rain,0.94,0
544,Folldal,NO,2020-02-20 04:27:15,62.13,10.0,12.87,96,100,11.23,overcast clouds,0,0
545,Abu Samrah,SY,2020-02-20 04:27:15,35.3,37.18,46.49,90,0,11.16,clear sky,0,0
546,Severo-Kurilsk,RU,2020-02-20 04:27:15,50.68,156.12,20.97,82,77,12.59,light snow,0,0.13
547,Preobrazheniye,RU,2020-02-20 04:27:15,42.9,133.91,30.22,48,0,3.27,clear sky,0,0
548,Sumkino,RU,2020-02-20 04:27:15,58.11,68.32,32.41,98,100,6.69,light snow,0,1.06
549,Yeniseysk,RU,2020-02-20 04:27:16,58.45,92.17,22.28,91,100,9.01,light snow,0,0.69
550,Southbridge,US,2020-02-20 04:27:16,42.08,-72.03,30.2,45,1,12.75,clear sky,0,0
551,Bonoua,CI,2020-02-20 04:27:16,5.27,-3.6,82.4,94,40,4.7,scattered clouds,0,0
552,Sistranda,NO,2020-02-20 04:27:16,63.73,8.83,36.0,69,100,20.8,overcast clouds,0,0
553,Egvekinot,RU,2020-02-20 04:27:17,66.32,-179.17,-14.44,87,0,9.73,clear sky,0,0
554,Nemuro,JP,2020-02-20 04:27:17,43.32,145.57,33.8,50,75,3.36,broken clouds,0,0
555,Pangody,RU,2020-02-20 04:27:17,65.85,74.49,31.84,98,100,4.76,light snow,0,0.31
556,Xushan,CN,2020-02-20 04:27:17,30.18,121.25,59.0,47,0,2.24,clear sky,0,0
557,Waitati,NZ,2020-02-20 04:27:17,-45.75,170.57,62.01,87,95,23.0,overcast clouds,0,0
558,Inyonga,TZ,2020-02-20 04:27:18,-6.72,32.07,63.54,97,83,3.0,light rain,1.63,0
559,Mackay,AU,2020-02-20 04:27:18,-21.15,149.2,91.99,70,16,12.75,few clouds,0,0
560,Carutapera,BR,2020-02-20 04:27:18,-1.2,-46.02,79.93,86,100,15.19,light rain,0.38,0
561,Qarqin,AF,2020-02-20 04:27:19,37.42,66.04,39.7,64,0,9.98,clear sky,0,0
562,Ahipara,NZ,2020-02-20 04:27:19,-35.17,173.17,82.99,73,93,1.01,overcast clouds,0,0
563,Port-Gentil,GA,2020-02-20 04:27:19,-0.72,8.78,80.29,84,100,11.01,overcast clouds,0,0
564,Samarai,PG,2020-02-20 04:27:19,-10.62,150.67,91.18,51,100,1.61,light rain,0.31,0
565,Sayyan,YE,2020-02-20 04:27:19,15.17,44.32,53.24,78,5,4.99,clear sky,0,0
566,Khasan,RU,2020-02-20 04:27:20,42.43,130.64,30.52,50,0,10.07,clear sky,0,0
567,Benjamin Constant,BR,2020-02-20 04:27:20,-4.38,-70.03,78.8,100,40,0.31,scattered clouds,0,0
568,Pemex,MX,2020-02-20 04:27:20,18.44,-96.35,71.96,93,7,2.75,light rain,0.63,0
569,Karasjok,NO,2020-02-20 04:27:20,69.47,25.51,19.4,62,90,31.09,overcast clouds,0,0
570,Epe,NG,2020-02-20 04:27:21,6.58,3.98,76.69,95,33,1.34,scattered clouds,0,0
571,Ochamchira,GE,2020-02-20 04:27:21,42.71,41.47,44.53,87,55,8.7,broken clouds,0,0
572,Palu,ID,2020-02-20 04:27:21,-0.89,119.87,81.27,69,0,3.0,light rain,2.19,0
573,Caravelas,BR,2020-02-20 04:27:21,-17.71,-39.25,80.56,83,0,10.11,light rain,0.63,0
574,Pemberton,CA,2020-02-20 04:27:22,50.32,-122.8,18.45,73,0,1.61,clear sky,0,0
575,Havoysund,NO,2020-02-20 04:27:22,71.0,24.66,28.4,86,75,19.46,light shower snow,0,0
576,Porto Nacional,BR,2020-02-20 04:27:22,-10.71,-48.42,72.84,91,100,2.28,overcast clouds,0,0
577,Zaltan,LY,2020-02-20 04:27:22,32.95,11.87,55.33,78,46,7.4,scattered clouds,0,0
578,Atambua,ID,2020-02-20 04:27:22,-9.11,124.89,83.91,65,74,3.94,broken clouds,0,0
579,Homa Bay,KE,2020-02-20 04:27:23,-0.53,34.46,68.0,88,20,6.93,few clouds,0,0
580,Puerto Del Rosario,ES,2020-02-20 04:27:23,28.5,-13.86,62.6,67,75,17.22,broken clouds,0,0
